Time,Accelerometer X,Accelerometer Y,Accelerometer Z,Gyro roll rate,Gyro pitch rate,Gyro yaw rate,Longitude,Latitude,Ultrasonic (inches),Ultrasonic (cm)
5/2/2024 12:21,-1.4,-0.66,3.76,2.23,-5.4,0.44,30.158749,-1.934595,9,23
5/2/2024 12:21,-1.4,-0.66,3.77,2.26,-5.6,0.64,30.158743,-1.934608,0,1
5/2/2024 12:21,-1.4,-0.65,3.77,2.17,-5.62,0.72,30.158735,-1.934614,0,1
5/2/2024 12:21,-1.4,-0.67,3.79,2.06,-5.85,0.93,30.158728,-1.934618,9,23
5/2/2024 12:21,-1.4,-0.66,3.78,2.11,-4.78,1.01,30.158726,-1.934617,9,23
5/2/2024 12:21,-1.37,-0.67,3.77,2.12,-5.73,1.04,30.158724,-1.934615,1,5
5/2/2024 12:21,-1.42,-0.65,3.44,1.86,-12.06,1.63,30.158724,-1.934614,1,4
5/2/2024 12:21,-1.4,-0.67,3.79,1.98,-5.65,0.73,30.158726,-1.934615,9,23
5/2/2024 12:21,-1.39,-0.66,3.7,1.44,-5.04,0.78,30.158728,-1.934617,9,23
5/2/2024 12:21,-1.38,-0.68,3.78,2.12,-5.54,0.34,30.15873,-1.934619,0,2
5/2/2024 12:22,-1.42,-0.65,3.78,2.5,-4.69,0.79,30.15873,-1.934618,0,2
5/2/2024 12:22,-1.46,-0.64,3.76,2.09,-7.15,0.18,30.158728,-1.934617,9,23
5/2/2024 12:22,-1.44,-0.64,3.85,1.97,-2.64,0.66,30.158728,-1.934617,9,23
5/2/2024 12:22,-1.42,-0.66,3.74,1.85,-4.75,0.81,30.15873,-1.934618,9,23
5/2/2024 12:22,-1.4,-0.64,3.75,2.06,-5.39,0.52,30.15873,-1.934618,0,1
5/2/2024 12:22,-1.35,-0.69,3.79,1.82,-5.53,0.9,30.15873,-1.934619,9,23
5/2/2024 12:22,-1.35,-0.67,3.78,1.82,-6.52,0.67,30.15873,-1.93462,9,23
5/2/2024 12:22,-1.39,-0.63,3.77,1.89,-5.39,0.61,30.158731,-1.934621,9,23
5/2/2024 12:22,-1.43,-0.66,3.78,2.31,-5.42,0.67,30.158731,-1.934621,2,6
5/2/2024 12:22,-1.43,-0.63,3.75,2.15,-5.5,0.96,30.158731,-1.93462,9,23
5/2/2024 12:22,-1.41,-0.65,3.79,1.94,-5.91,0.67,30.158731,-1.934619,9,23
5/2/2024 12:22,-1.41,-0.65,3.75,1.92,-5.24,0.85,30.158733,-1.934618,9,23
5/2/2024 12:22,-1.41,-0.68,3.76,1.82,-5.65,0.56,30.158731,-1.934618,0,1
5/2/2024 12:22,-1.41,-0.63,3.8,2.14,-5.59,0.41,30.158733,-1.934618,9,23
5/2/2024 12:22,-1.42,-0.66,3.77,2.18,-5.51,0.53,30.158733,-1.934617,9,23
5/2/2024 12:22,-1.43,-0.66,3.76,2.37,-5.71,0.44,30.158735,-1.934616,9,23
5/2/2024 12:22,-1.43,-0.67,3.76,2.21,-5.63,0.49,30.158737,-1.934615,0,2
5/2/2024 12:22,-1.39,-0.66,3.76,2.26,-5.51,0.63,30.158737,-1.934617,9,23
5/2/2024 12:22,-1.41,-0.68,3.81,2.52,-5.57,0.6,30.158739,-1.934615,9,23
5/2/2024 12:22,-1.42,-0.66,3.78,2.08,-5.79,0.9,30.158741,-1.934615,9,24
5/2/2024 12:22,-1.42,-0.65,3.77,2.46,-5.63,0.34,30.158741,-1.934616,0,1
5/2/2024 12:22,-1.42,-0.63,3.77,2.02,-5.86,0.69,30.158743,-1.934617,9,23
5/2/2024 12:23,-1.4,-0.64,3.8,2.14,-5.4,0.9,30.158745,-1.934617,9,23
5/2/2024 12:23,-1.36,-0.65,3.6,0.95,-1.63,0.63,30.158745,-1.934619,9,23
5/2/2024 12:23,-1.42,-0.67,3.79,1.83,-5.51,0.7,30.158745,-1.934621,0,2
5/2/2024 12:23,-1.59,-0.52,3.7,3.01,-6.9,2.98,30.158743,-1.934622,0,1
5/2/2024 12:23,-1.4,-0.64,3.76,2.11,-5.44,0.75,30.158743,-1.934624,9,23
5/2/2024 12:23,-1.41,-0.64,3.77,2.37,-5.86,0.5,30.158743,-1.934627,9,23
5/2/2024 12:23,-1.41,-0.61,3.85,2.87,-4.06,1.1,30.158741,-1.934631,9,23
5/2/2024 12:23,-1.41,-0.66,3.76,2.27,-5.08,0.72,30.158739,-1.934634,0,2
5/2/2024 12:23,-1.41,-0.66,3.75,2.23,-4.98,0.69,30.158739,-1.934636,9,23
5/2/2024 12:23,-1.4,-0.66,3.75,2.02,-5.56,0.53,30.158739,-1.934639,9,23
5/2/2024 12:23,-1.41,-0.63,3.79,1.89,-6.55,0.85,30.158739,-1.934644,9,23
5/2/2024 12:23,-1.4,-0.65,3.77,2.15,-5.88,0.93,30.158739,-1.934651,0,1
5/2/2024 12:23,-1.44,-0.66,3.72,2.23,-5.73,0.6,30.158739,-1.934655,1,2
5/2/2024 12:23,-1.42,-0.68,3.77,2.02,-5.62,0.55,30.158739,-1.93466,9,23
5/2/2024 12:23,-1.4,-0.63,3.78,1.68,-5.5,0.67,30.158739,-1.934662,9,23
5/2/2024 12:23,-1.42,-0.65,3.77,2.11,-5.19,0.76,30.158737,-1.934664,1,3
5/2/2024 12:23,-1.42,-0.65,3.77,2.03,-5.85,0.85,30.158737,-1.934667,2,6
5/2/2024 12:23,-1.42,-0.66,3.77,2.21,-5.76,0.64,30.158737,-1.934671,9,23
5/2/2024 12:23,-1.4,-0.65,3.76,2.08,-5.31,0.64,30.158737,-1.934671,9,23
5/2/2024 12:23,-1.43,-0.65,3.77,2.15,-5.51,0.49,30.158737,-1.934669,9,23
5/2/2024 12:23,-1.39,-0.68,3.77,2.21,-5.13,0.5,30.158739,-1.934668,0,1
5/2/2024 12:23,-1.43,-0.67,3.78,2.24,-5.37,0.67,30.158739,-1.934667,9,23
5/2/2024 12:24,-1.41,-0.66,3.77,2.12,-5.56,0.93,30.158739,-1.934665,9,23
5/2/2024 12:24,-1.44,-0.7,3.82,1.91,-6.26,0.69,30.158739,-1.934659,9,23
5/2/2024 12:24,-1.28,-0.75,4.03,2.55,-4.89,0.84,30.158739,-1.934655,1,2
5/2/2024 12:24,-1.5,-0.55,3.88,2.44,-2.78,0.92,30.158739,-1.934651,1,3
5/2/2024 12:24,-1.23,-0.62,3.61,1.89,-1.24,1.19,30.158739,-1.934648,9,23
5/2/2024 12:24,-1.31,-0.54,3.6,2.37,-9.83,0.41,30.158739,-1.934646,9,23
5/2/2024 12:24,-1.35,-0.65,3.78,0.49,-2.82,0.34,30.158739,-1.934644,9,23
5/2/2024 12:24,-1.39,-0.67,3.72,0.52,-6.37,0.4,30.158739,-1.934642,0,1
5/2/2024 12:24,-1.8,-0.62,4.07,0.32,-6.98,-1.11,30.158739,-1.93464,9,23
5/2/2024 12:24,-1.41,-0.7,3.85,2.34,-3.69,0.53,30.158739,-1.934638,9,23
5/2/2024 12:24,-1.39,-0.7,3.84,1.73,-4.24,0.7,30.158739,-1.934636,9,23
5/2/2024 12:24,-1.48,-0.6,3.75,2.61,3.15,1.68,30.158739,-1.934633,0,1
5/2/2024 12:24,-1.34,-0.7,3.67,-0.09,2.6,1.31,30.158739,-1.934631,0,2
5/2/2024 12:24,-1.48,-0.66,3.71,3.6,-13.83,1.73,30.158735,-1.934629,8,21
5/2/2024 12:24,-1.44,-0.62,4.01,0.73,-10.18,0.08,30.158726,-1.934629,8,21
5/2/2024 12:24,-1.17,-0.29,3.75,5.37,5.86,-2.9,30.15871,-1.93463,11,28
5/2/2024 12:24,-1.6,-0.63,5.75,22.73,-0.02,-23.94,30.158693,-1.934628,0,1
5/2/2024 12:24,-0.8,0.16,3.78,4.75,8.75,-8.08,30.158674,-1.93461,0,1
5/2/2024 12:24,-1.06,-0.02,3.69,-6.84,-28.87,6.17,30.15864,-1.934526,7,19
5/2/2024 12:24,-1.84,-0.09,4.27,-6.63,-16.23,11.89,30.15859,-1.934412,7,19
5/2/2024 12:24,-1.81,-0.11,3.5,11.22,-20.84,-8.29,30.158493,-1.934312,8,22
5/2/2024 12:25,-1.73,-0.18,3.31,1.08,-10.72,0.53,30.158405,-1.934215,0,2
5/2/2024 12:25,-1.86,-0.06,3.5,-17.04,13.02,30.85,30.158348,-1.934153,0,2
5/2/2024 12:25,-1.52,-0.32,3.02,-7.27,-25.63,15.25,30.158211,-1.934111,8,20
5/2/2024 12:25,-1.66,-0.64,3.71,2.61,0.53,-6.98,30.15803,-1.934161,8,21
5/2/2024 12:25,-1.19,-1.31,4.23,16.47,-13.62,-35.21,30.157833,-1.934253,8,22
5/2/2024 12:25,-1.22,-0.71,3.84,14.61,-15.89,-14.75,30.157661,-1.934186,0,1
5/2/2024 12:25,-2.31,-0.06,3.29,-5.21,-8.55,17.07,30.157574,-1.934087,0,1
5/2/2024 12:25,-1.35,-0.3,2.9,-16.69,-17.47,37.56,30.157452,-1.93397,7,20
5/2/2024 12:25,-2.07,-0.3,3.58,-8.7,14.52,24.73,30.157293,-1.934036,7,19
5/2/2024 12:25,-2.14,-0.84,3.27,1.18,3.42,-2.52,30.157156,-1.934237,8,20
5/2/2024 12:25,-0.44,-1.61,3.57,22.27,7.66,-41.5,30.157038,-1.934449,0,1
5/2/2024 12:25,-2.07,-0.6,4.09,3.79,-1.57,-3.16,30.156891,-1.93451,0,1
5/2/2024 12:25,-1.87,-0.68,3.97,5.04,-26.43,0.18,30.15662,-1.934491,7,20
5/2/2024 12:25,-3.28,0.57,1.44,37.57,-109.15,6.17,30.156376,-1.934465,8,21
5/2/2024 12:25,-0.56,-0.19,3.03,12.76,10.67,-7.53,30.15616,-1.934398,7,20
5/2/2024 12:25,-1.67,-0.86,4.99,15.59,-38.37,-5.71,30.155994,-1.934239,0,1
5/2/2024 12:25,-1.39,0.05,3.52,2.32,-12.2,1.44,30.155903,-1.93411,0,1
5/2/2024 12:25,-1.25,0.16,3.97,-5.28,13.1,6.6,30.155777,-1.933915,7,19
5/2/2024 12:26,-1.31,-0.24,3.73,3.91,-18.76,0.73,30.154524,-1.932977,7,19
5/2/2024 12:26,-1.49,-0.11,4,3.28,-14.17,0.17,30.154467,-1.932956,7,19
5/2/2024 12:26,-1.83,-0.19,3.71,1.28,-12.72,4.15,30.154356,-1.932916,1,4
5/2/2024 12:26,-1.41,-0.05,4.91,-11.05,91.28,8.7,30.154255,-1.932881,0,1
5/2/2024 12:26,-1.72,-0.05,3.78,-1.98,10.9,3.18,30.154072,-1.932829,7,18
5/2/2024 12:26,-1.85,-0.37,3.93,1.79,-29.68,1.15,30.153862,-1.932781,7,20
5/2/2024 12:26,-1.44,-0.44,3.78,0.84,-3.44,5.47,30.153652,-1.932731,7,19
5/2/2024 12:26,-1.73,-0.39,3.26,-3.62,-1.05,4.75,30.153475,-1.932692,0,1
5/2/2024 12:26,-1.68,-0.47,3.88,-1.95,15.47,6.41,30.153383,-1.932677,0,2
5/2/2024 12:26,-1.5,-0.24,3.74,1.6,-11.59,-3.6,30.153265,-1.93268,7,19
5/2/2024 12:26,-1.86,-0.24,3.6,-5.16,8.61,-1.19,30.153111,-1.9327,7,19
5/2/2024 12:26,-2.17,0.2,3.76,5.13,-13.07,9.68,30.152887,-1.932716,7,19
5/2/2024 12:26,-1.31,-0.11,2.92,1.04,13.86,3.28,30.152637,-1.93277,0,2
5/2/2024 12:26,-1.26,0.02,3.75,-2.84,25.74,-0.6,30.152468,-1.932818,0,1
5/2/2024 12:27,-1.48,-0.42,4.09,16.66,-36.72,2,30.152248,-1.932905,7,20
5/2/2024 12:27,-1.99,-0.35,4.89,10.46,-34.44,-2.27,30.151983,-1.933013,7,20
5/2/2024 12:27,-1.93,-1.05,3.71,-11.08,2.6,-11.48,30.151661,-1.933094,8,21
5/2/2024 12:27,-2.05,0.31,3.67,0.18,25.53,3.94,30.151293,-1.933185,0,1
5/2/2024 12:27,-1.97,-0.37,3.28,6.14,-8.78,-4.49,30.151056,-1.933257,0,1
5/2/2024 12:27,-1.81,-0.45,1.84,-6.2,-9.22,0.95,30.150665,-1.933374,7,20
5/2/2024 12:27,-2.24,-0.28,4.37,3.86,-40.2,-1.05,30.150261,-1.933491,8,21
5/2/2024 12:27,-1.61,-0.09,1.86,9.63,-35.47,-0.08,30.149866,-1.933613,0,1
5/2/2024 12:27,-1.82,-0.37,2.21,10.02,-38.08,-0.49,30.149473,-1.933736,0,1
5/2/2024 12:27,-1.34,-0.56,3.02,4.43,-36.76,7.27,30.149229,-1.933817,7,20
5/2/2024 12:27,-2.02,-0.54,3.55,0.58,15.51,-1.3,30.148878,-1.933921,7,20
5/2/2024 12:27,-1.22,-0.56,3.2,1.94,-9.54,4.41,30.148546,-1.93403,7,20
5/2/2024 12:27,-2.22,-1.04,4.24,0.43,-2.66,2.92,30.148235,-1.934124,1,3
5/2/2024 12:27,-2.35,-0.64,2.99,1.97,-8.27,0.61,30.148073,-1.934168,1,3
5/2/2024 12:27,-1.68,-0.16,3.78,4.64,-5.27,-2.53,30.14797,-1.934199,7,20
5/2/2024 12:27,-1.76,-0.15,3.79,11.13,-4.27,-14.81,30.147913,-1.934219,8,20
5/2/2024 12:27,-1.46,-0.15,3.1,1.08,-3.13,1.57,30.147842,-1.934228,8,20
5/2/2024 12:27,-2.28,0.11,3.89,7.77,-10.11,-1.48,30.147768,-1.934214,0,1
5/2/2024 12:27,-1.16,-0.14,3.85,7.73,3.31,-7.66,30.147697,-1.934204,0,2
5/2/2024 12:27,-1.62,-0.03,3.83,2.81,-10,-3.92,30.147554,-1.934158,7,18
5/2/2024 12:27,-1.58,0.03,3.69,4.14,-1.48,-3.6,30.147392,-1.934089,7,18
5/2/2024 12:28,-1.98,-0.22,3.86,2.55,-3.04,-4.92,30.147221,-1.933979,7,18
5/2/2024 12:28,-1.54,0.1,3.13,6.79,-18.53,-3.04,30.14706,-1.933861,0,1
5/2/2024 12:28,-1.96,-0.05,4.23,14.6,-76.12,-8.41,30.146965,-1.933765,0,1
5/2/2024 12:28,-1.64,-0.43,3.53,6.58,-6.18,-4.14,30.146856,-1.933572,8,20
5/2/2024 12:28,-1.24,-0.06,4.03,13.45,-9.51,-9.62,30.146788,-1.9334,7,19
5/2/2024 12:28,-1.72,-0.49,3.98,3.98,-2.55,8.35,30.146774,-1.933241,8,22
5/2/2024 12:28,-2.2,0.58,3.74,-22.93,4.17,31.77,30.146755,-1.933109,0,2
5/2/2024 12:28,-1.85,-0.34,3.74,-9.62,3.36,16.26,30.146687,-1.933045,0,1
5/2/2024 12:28,-1.4,-0.48,4.21,12.34,-18.11,-18.76,30.146507,-1.933009,7,19
5/2/2024 12:28,-1.27,-0.08,3.16,9.69,-1.19,-4.11,30.146297,-1.932915,7,19
5/2/2024 12:28,-2.38,-0.14,3.33,-3.18,-4.37,-0.44,30.146093,-1.932795,7,19
5/2/2024 12:28,-2.21,-0.42,3.55,8.02,-30.41,0.49,30.145903,-1.932566,0,1
5/2/2024 12:28,-2.1,-0.76,4.43,-4.2,-4.7,5.66,30.145758,-1.932425,0,1
5/2/2024 12:28,-2.35,-0.17,3.89,-3.28,-11.33,1.37,30.145517,-1.93223,7,19
5/2/2024 12:28,-1.92,-0.53,3.86,-1.48,-2.84,8.44,30.145231,-1.932071,7,20
5/2/2024 12:28,-1.58,-0.6,3.47,-0.64,6.12,2.75,30.144939,-1.931934,7,19
5/2/2024 12:28,-2.27,-0.23,3.45,4.61,-32.73,3.44,30.144659,-1.931826,0,1
5/2/2024 12:28,-2.37,-0.46,3.51,1.8,21.59,7.28,30.144453,-1.931777,0,1
5/2/2024 12:28,-2.23,-0.52,3.39,-11.66,1.77,4.23,30.144133,-1.931723,7,20
5/2/2024 12:28,-3.14,-0.46,4.2,-3.34,8.02,13.97,30.143816,-1.931718,8,20
5/2/2024 12:28,-1.92,-0.62,3.7,-0.85,-0.89,5.1,30.14352,-1.93177,7,19
5/2/2024 12:28,-2.11,-0.34,2.67,-2.47,4.73,8.55,30.143261,-1.931848,0,1
5/2/2024 12:29,-2.6,-0.63,3.22,1.04,-8.96,3.89,30.143118,-1.931916,0,1
5/2/2024 12:29,-2.33,-0.9,3.18,5.25,-17.07,-1.73,30.142958,-1.932003,7,20
5/2/2024 12:29,-2.67,-0.81,3.84,3.77,11.66,5.83,30.142864,-1.932058,7,19
5/2/2024 12:29,-2.4,-0.23,3.59,-14.02,-17.47,33.44,30.142817,-1.932082,0,1
5/2/2024 12:29,-2.28,-0.37,3.66,-6.17,-22.2,19.44,30.142801,-1.932097,1,4
5/2/2024 12:29,-1.69,-0.4,3.54,-11.57,4.18,11.57,30.142807,-1.932101,7,20
5/2/2024 12:29,-2.26,0.36,3.12,-18.96,10.35,37.07,30.142817,-1.932107,8,22
5/2/2024 12:29,-2.56,0.73,4.65,-4.5,10.47,1.24,30.142878,-1.932111,8,22
5/2/2024 12:29,-2.78,2.02,3.81,-43.54,91.47,-23.92,30.142962,-1.932099,0,1
5/2/2024 12:29,-1.24,-0.2,2.57,0.52,40.67,-8.81,30.143021,-1.932092,0,1
5/2/2024 12:29,-1.62,-0.02,2.7,17.1,67.82,9.54,30.143099,-1.932067,7,18
5/2/2024 12:29,-1.46,-0.74,3.5,4.58,-23.89,-7.1,30.143156,-1.932047,11,29
5/2/2024 12:29,-1.23,0.04,2.02,-20.18,-41.74,-5.56,30.143209,-1.932043,9,23
5/2/2024 12:29,-1.59,-0.26,3.98,0.32,11.65,4.81,30.143265,-1.932038,0,0
5/2/2024 12:29,-0.01,-0.46,3.82,-7.74,50.08,-20.58,30.14336,-1.93202,0,1
5/2/2024 12:29,-0.2,0.14,4.54,-11.92,139.4,-11.01,30.143446,-1.932019,0,1
5/2/2024 12:29,-1.01,0.92,3.63,-26.85,58.53,-25.92,30.143505,-1.932026,7,20
5/2/2024 12:29,-2.47,-0.4,2.49,9.39,52.49,24.85,30.143579,-1.932054,8,20
5/2/2024 12:29,1.35,-0.02,3.89,-16.64,-46.14,-25.57,30.143667,-1.932078,0,1
5/2/2024 12:29,-2.16,0.54,5.01,-1.34,36.79,-11.45,30.143747,-1.932119,0,1
5/2/2024 12:29,-1.79,0.19,3.62,0.23,-16.52,-13.69,30.143803,-1.932148,0,1
5/2/2024 12:30,-0.97,0.26,2.46,17.07,-104.52,2.03,30.143877,-1.932195,8,21
5/2/2024 12:30,-2.91,-1.39,7.12,19.16,-62.37,18.35,30.143963,-1.93223,7,19
5/2/2024 12:30,-0.5,-1.18,6.33,10.2,178.87,17.94,30.144054,-1.932286,0,1
5/2/2024 12:30,-1.21,-0.03,3.21,8.05,11.8,5.54,30.144108,-1.932316,1,4
5/2/2024 12:30,-2.67,-0.18,6.42,-14.2,73.24,14.67,30.144197,-1.93237,8,20
5/2/2024 12:30,-3.34,-0.23,5.92,-21.02,159.54,1.37,30.144285,-1.932417,6,15
5/2/2024 12:30,-0.09,-0.3,5.01,-19.62,28.38,-6.58,30.144358,-1.932471,7,18
5/2/2024 12:30,1.11,-0.14,3.1,-22.9,7.65,-30.69,30.144419,-1.932526,0,1
5/2/2024 12:30,-1.47,0.29,4.91,13.51,16.32,16,30.144459,-1.932565,9,25
5/2/2024 12:30,-2.26,-0.22,5.14,-1.73,-5.27,-4.41,30.14452,-1.932635,8,22
5/2/2024 12:30,-1.45,0.3,4.64,-2.81,-8.93,2.52,30.144579,-1.932713,7,19
5/2/2024 12:30,-3.02,0.06,3.88,-2.73,22.64,-0.11,30.144651,-1.932771,0,2
5/2/2024 12:30,-3.73,-0.22,4.91,-8.02,-29.56,-19.3,30.144718,-1.932812,0,0
5/2/2024 12:30,-0.74,-0.7,3.53,6.32,21.92,2.99,30.144751,-1.932845,7,19
5/2/2024 12:30,-2.09,-0.08,1.52,13.48,-10.67,16.79,30.144794,-1.932908,7,18
5/2/2024 12:30,-1.75,-0.26,3.96,-7.04,8.31,-15.04,30.144835,-1.932988,7,19
5/2/2024 12:30,-2.53,0.24,3.68,-1.34,-30.27,12.75,30.144867,-1.933088,0,1
5/2/2024 12:30,-1.44,-0.79,4.96,-8.95,-23.97,-12.5,30.144886,-1.933167,0,1
5/2/2024 12:30,-2.46,-0.05,3.61,21.07,-66.66,15.73,30.144951,-1.933237,8,21
5/2/2024 12:30,-2.08,0.1,5.86,18.14,-5.53,20.82,30.14501,-1.933304,8,22
5/2/2024 12:30,-0.45,-0.83,3.47,0.84,-62.09,-15.1,30.145061,-1.93337,9,23
5/2/2024 12:31,-1.82,0.63,2.4,-2.82,-107.13,-6.76,30.145096,-1.933434,0,1
5/2/2024 12:31,-0.15,-0.21,3.32,-0.09,38.08,10.81,30.145115,-1.933468,0,2
5/2/2024 12:31,-2.02,0.27,2.89,-11.82,13.68,-4.09,30.145145,-1.933541,9,23
5/2/2024 12:31,-0.88,-0.54,3.33,-6.08,-12.84,-5.18,30.145166,-1.933626,7,19
5/2/2024 12:31,-3.82,0.25,3.53,-0.09,-13.59,24.99,30.145187,-1.933705,7,19
5/2/2024 12:31,-1.89,-0.11,3.97,-2.99,36.95,-10.69,30.14522,-1.933767,0,1
5/2/2024 12:31,-1.07,-1.41,4.72,6.82,-33.74,3.65,30.145237,-1.933801,1,4
5/2/2024 12:31,-1.39,-1.1,3.18,11.15,-115.45,8.75,30.14526,-1.933855,7,20
5/2/2024 12:31,-2.04,-0.23,5.11,-4.47,-7.1,8.11,30.14529,-1.933923,7,18
5/2/2024 12:31,-1.26,-0.11,4.84,3.97,23.76,-1.79,30.145325,-1.933981,8,20
5/2/2024 12:31,-2.47,-0.61,3.91,0.41,-19.22,-0.55,30.145351,-1.934044,0,1
5/2/2024 12:31,-1.62,-0.12,3.62,8.92,-31.85,-1.91,30.145374,-1.934083,0,1
5/2/2024 12:31,0.59,-1.16,4.12,15.07,-70.05,2.14,30.145403,-1.934134,7,18
5/2/2024 12:31,-0.42,0.22,3.55,-2.26,-16.31,-10.05,30.145445,-1.934201,8,21
5/2/2024 12:31,-0.27,0.95,1.65,-27.5,71.89,-12.37,30.145485,-1.93427,0,1
5/2/2024 12:31,-3.26,-0.56,4.09,31.21,-140.7,16.92,30.145529,-1.934342,0,1
5/2/2024 12:31,1.62,-2.37,5.9,13.59,-22.27,16.95,30.145563,-1.934388,6,15
5/2/2024 12:31,-0.7,-0.69,3.22,-0.15,-64.56,-0.85,30.14562,-1.934467,8,22
5/2/2024 12:31,0.26,-1.35,5.61,-22.79,120.02,8.44,30.145687,-1.934548,0,1
5/2/2024 12:31,-1.65,-0.04,2.37,-8.53,13.39,-10.4,30.145748,-1.934614,0,1
5/2/2024 12:31,-1.27,0.04,3.94,-23.56,71.18,-4.98,30.145782,-1.934645,6,17
5/2/2024 12:31,0.81,-1.02,1.89,-10.29,65.08,0.21,30.14583,-1.934701,8,20
5/2/2024 12:32,-2.53,0.05,3.77,-26.64,23.97,-3.86,30.145885,-1.934758,8,22
5/2/2024 12:32,-2.02,-0.05,4,-0.2,23.02,-6.95,30.145939,-1.934818,0,1
5/2/2024 12:32,-2.94,-0.07,4.69,-7.95,26.44,2.11,30.145973,-1.934852,0,1
5/2/2024 12:32,-0.99,-0.24,3.18,2.4,-28.4,1.44,30.146017,-1.934891,10,25
5/2/2024 12:32,-0.3,0.09,3.89,0.43,67.33,13.07,30.146061,-1.934922,4,12
5/2/2024 12:32,-1.74,-0.75,3.91,-5.91,-100.96,-19.98,30.146097,-1.934954,6,17
5/2/2024 12:32,-1.35,-0.32,3.96,-4.14,-32.24,2.82,30.146143,-1.934994,0,1
5/2/2024 12:32,-2.24,-0.92,4.96,5.82,0.49,2.72,30.14617,-1.935015,2,5
5/2/2024 12:32,-1.3,-0.64,3.6,7.94,-32.34,-4.53,30.146219,-1.935033,8,22
5/2/2024 12:32,-0.5,-0.2,3.23,10.64,14.81,11.95,30.146252,-1.935063,9,23
5/2/2024 12:32,-0.66,-0.45,5.52,0.09,13.48,9.24,30.146282,-1.935096,0,1
5/2/2024 12:32,-0.42,-0.49,4.73,-6.08,-8.4,-8.15,30.146322,-1.935139,0,1
5/2/2024 12:32,-1.28,0.63,4.89,-1.42,59.56,0.85,30.146345,-1.935168,8,20
5/2/2024 12:32,-0.15,0.09,3.55,3.77,68.95,-6.44,30.146404,-1.935228,8,20
5/2/2024 12:32,-4.23,-0.15,5.05,-10.95,79.68,-16.95,30.146456,-1.935278,7,19
5/2/2024 12:32,-1.01,-0.38,3.91,6.85,21.63,4.55,30.146511,-1.935331,0,1
5/2/2024 12:32,0.4,-0.77,3.74,-9.36,32,12.7,30.14654,-1.935361,5,15
5/2/2024 12:32,-0.74,-0.75,3.52,2.52,0.37,-10.79,30.146585,-1.935403,7,19
5/2/2024 12:32,-0.66,-1.14,4.75,7.86,0.38,0.61,30.146641,-1.935446,0,1
5/2/2024 12:32,-2.16,-0.52,4.3,7.44,-6.7,0.76,30.146677,-1.935475,0,1
5/2/2024 12:32,-1.08,-0.14,3.31,3.71,-6.27,0.98,30.146696,-1.935487,8,20
5/2/2024 12:32,-1.29,-0.09,3.91,4.32,-18.98,-1.02,30.146713,-1.9355,7,19
5/2/2024 12:33,-1.47,-0.09,3.88,3.59,-11.42,-1.22,30.146723,-1.93551,10,27
5/2/2024 12:33,-1.74,-0.25,4.12,4.53,-22.35,1.01,30.146734,-1.935519,1,4
5/2/2024 12:33,-1.15,-0.22,3.52,0.82,0.84,-2.87,30.146742,-1.935523,2,6
5/2/2024 12:33,-1.42,-0.15,4.4,3.05,-7.59,-1.65,30.146749,-1.935528,7,20
5/2/2024 12:33,-0.96,-0.26,3.39,0.05,-7.89,-0.47,30.146759,-1.935543,6,16
5/2/2024 12:33,-1.34,-0.14,4.25,2.87,-9.48,0.32,30.146769,-1.935553,10,27
5/2/2024 12:33,-1.75,-0.9,3.81,6.26,-36.61,2.58,30.146786,-1.935568,0,2
5/2/2024 12:33,-1.11,-0.52,3.52,-9.65,8.05,1.24,30.146797,-1.935575,0,1
5/2/2024 12:33,-2.24,-0.43,4,-0.82,-49.5,-1.34,30.146818,-1.93558,7,20
5/2/2024 12:33,-0.96,-0.07,2.3,3.8,-37.37,-7.18,30.14686,-1.935602,9,23
5/2/2024 12:33,-0.25,-0.98,2.92,12.34,-10.05,3.8,30.146904,-1.935635,0,1
5/2/2024 12:33,-1.97,-0.09,3.73,-2.53,8.89,-2.87,30.146921,-1.93565,0,1
5/2/2024 12:33,-2.51,-0.3,4.67,10.99,31.97,2.64,30.146954,-1.935673,7,18
5/2/2024 12:33,-1.27,-0.86,4.31,-8.64,25.36,1.98,30.14698,-1.935698,8,22
5/2/2024 12:33,-2.18,0.62,3.83,-0.24,29.28,6.46,30.147017,-1.935731,8,21
5/2/2024 12:33,-0.96,-0.59,4.26,-3.19,-3.86,-0.56,30.147057,-1.935777,0,1
5/2/2024 12:33,-1.02,-0.35,3.43,3.27,21.98,3.33,30.147072,-1.935793,0,0
5/2/2024 12:33,-2.86,-0.69,5.29,-2.23,-6.47,-1.36,30.147108,-1.935809,10,27
5/2/2024 12:33,-0.28,-1.13,4.22,10.5,4.2,10.02,30.147133,-1.935823,0,1
5/2/2024 12:33,-1.48,-0.92,4.11,4.92,-16.24,1.69,30.147148,-1.935835,9,25
5/2/2024 12:33,-1.37,-0.58,4.18,2.76,-18.53,4.15,30.147165,-1.935863,10,27
5/2/2024 12:34,-1.81,-0.4,3.99,9.39,-33.8,1.4,30.147181,-1.935878,5,14
5/2/2024 12:34,-1.29,-0.67,4.25,-2.38,-22.49,-3.89,30.147202,-1.935894,0,1
5/2/2024 12:34,-1.05,-0.49,3.02,3.24,-30.32,-1.42,30.147219,-1.935914,7,18
5/2/2024 12:34,-0.34,-0.42,4.26,4.6,-7.68,-3.94,30.147251,-1.935949,6,16
5/2/2024 12:34,-1.52,-0.94,3.82,5.33,-36.99,0.99,30.14727,-1.935966,8,20
5/2/2024 12:34,-1.87,-0.62,3.61,-4.14,18.31,1.8,30.147291,-1.935985,2,5
5/2/2024 12:34,-0.64,-0.39,4.19,1.74,-42,2.52,30.14731,-1.936003,0,1
5/2/2024 12:34,-1.23,-0.5,4.02,9.1,-31.91,-4.02,30.147343,-1.936023,6,17
5/2/2024 12:34,-1.24,0.17,4,4.64,-14.18,-0.12,30.147366,-1.936044,7,18
5/2/2024 12:34,-1.94,-0.77,3.28,5.45,-51.27,-0.29,30.147383,-1.936067,5,15
5/2/2024 12:34,-0.99,-0.31,3.38,1.6,6.24,2.52,30.1474,-1.936087,0,1
5/2/2024 12:34,-0.84,-0.59,3.67,5.97,11.76,2.11,30.147408,-1.936098,6,15
5/2/2024 12:34,-1.83,-0.58,3.84,3.76,-23.01,-0.64,30.147427,-1.93611,8,21
5/2/2024 12:34,-1,-0.17,3.63,0.78,6.95,0.78,30.147436,-1.936119,6,16
5/2/2024 12:34,-1.26,-1.06,4.14,-1.57,6.21,-3.1,30.147449,-1.936135,1,4
5/2/2024 12:34,-1.22,-0.38,3.69,7.19,-27.27,-1.98,30.147455,-1.936144,8,22
5/2/2024 12:34,-1.37,-0.62,4.33,2.15,-1.88,-0.21,30.14747,-1.93616,9,24
5/2/2024 12:34,-0.8,-0.89,3.48,3.89,-11.48,-1.22,30.147488,-1.936177,6,16
5/2/2024 12:34,-0.77,-0.36,3.42,2.46,10.47,6.27,30.147501,-1.936198,0,1
5/2/2024 12:34,-1.24,-0.91,3.32,-3.8,14.89,1.18,30.147511,-1.936206,4,10
5/2/2024 12:34,-1.06,-0.24,3.8,0.99,8.2,1.6,30.147526,-1.936224,8,20
5/2/2024 12:35,-1.26,-0.19,3.63,4.15,-25.5,1.88,30.147533,-1.936234,5,13
5/2/2024 12:35,-1.38,-0.45,3.93,3.3,-2.38,-2,30.147541,-1.936247,0,0
5/2/2024 12:35,-1.18,-0.49,3.7,0.14,-4.37,5.33,30.147556,-1.936274,7,19
5/2/2024 12:35,-1.58,-0.6,3.35,-11.85,-2.73,31.8,30.147585,-1.936305,0,2
5/2/2024 12:35,-1.21,-0.52,3.72,-4.58,-0.24,14.85,30.147594,-1.936313,0,1
5/2/2024 12:35,-1.24,-0.34,3.91,-1.47,14.85,1.3,30.147612,-1.93632,7,18
5/2/2024 12:35,-1.48,-0.14,4.2,0.9,-26.38,11.69,30.14761,-1.936329,7,18
5/2/2024 12:35,-0.94,-0.1,3.41,-3.97,10.75,9.54,30.147604,-1.936333,7,19
5/2/2024 12:35,-1.66,-0.4,3.99,1.11,-26.76,10.23,30.1476,-1.936341,0,2
5/2/2024 12:35,-1.35,-0.22,3.99,-2.21,0.95,11.62,30.1476,-1.936345,0,1
5/2/2024 12:35,-1.28,0.03,4.06,3.59,-11.24,2.55,30.147598,-1.936353,7,19
5/2/2024 12:35,-1.17,0.23,3.55,-2.49,-17.53,16.87,30.147602,-1.936353,7,18
5/2/2024 12:35,-1.14,0.09,3.6,6.61,-14.34,-4.55,30.147594,-1.936337,7,19
5/2/2024 12:35,-1.48,-0.09,3.79,9.98,-8.21,-2.56,30.147593,-1.936321,0,1
5/2/2024 12:35,-1.4,-0.09,3.38,2.58,-4.99,1.18,30.147591,-1.936315,0,1
5/2/2024 12:35,-1.46,-0.05,3.79,2.98,-9.15,2.73,30.147587,-1.936316,7,18
5/2/2024 12:35,-1.16,0,3.4,2.15,5.39,-6.72,30.147585,-1.936312,9,23
5/2/2024 12:35,-1.22,-0.02,4.32,7.63,-22.46,-7.18,30.147585,-1.936299,7,20
5/2/2024 12:35,-1.3,-0.4,3.39,3.11,14.72,-8.52,30.147587,-1.936293,0,1
5/2/2024 12:35,-0.64,-0.09,3.75,8.41,37.3,-26.79,30.147591,-1.93629,0,1
5/2/2024 12:35,-1.28,-0.1,4.48,-0.47,7.63,-1.62,30.147623,-1.936265,7,18
5/2/2024 12:36,-1.14,-0.57,3.59,3.92,-0.43,-2.95,30.147732,-1.936211,7,18
5/2/2024 12:36,-1.93,-0.26,4.18,-6.37,-1.97,7.36,30.14786,-1.936149,7,18
5/2/2024 12:36,-1.35,-0.8,4.03,3.94,-3.39,-4.76,30.147974,-1.936111,0,1
5/2/2024 12:36,-1.2,-0.19,3.71,-3.08,15.68,-0.08,30.148012,-1.936095,0,1
5/2/2024 12:36,-1.18,-0.27,3.52,3.07,-17.47,0.37,30.148037,-1.936086,7,18
5/2/2024 12:36,-1.44,-0.26,4.06,0.81,-2.75,0.58,30.148046,-1.936084,7,18
5/2/2024 12:36,-1.5,-0.27,3.81,3.36,-21.79,-0.14,30.148046,-1.936084,7,18
5/2/2024 12:36,-1.53,-0.27,3.87,3.5,-18.27,1.19,30.148048,-1.936086,0,1
5/2/2024 12:36,-1.47,-0.05,4.13,2.82,-9.39,2.9,30.14805,-1.936087,0,1
5/2/2024 12:36,-1.24,-0.26,4.01,5.15,0.09,-13.44,30.148071,-1.936076,7,19
5/2/2024 12:36,-0.97,-0.17,4.11,8.34,-39.42,-28.53,30.148134,-1.936064,7,19
5/2/2024 12:36,-1.54,-0.58,3.13,-2.46,-23.33,17.3,30.148256,-1.93614,0,2
5/2/2024 12:36,-1.55,-0.17,3.62,-0.7,-13.11,10.99,30.148399,-1.936175,1,4
5/2/2024 12:36,-2.2,-0.15,3.38,-4.9,-19.63,41.95,30.148483,-1.93616,0,1
5/2/2024 12:36,-1.47,0.58,3.89,-10.12,8.67,22.18,30.148548,-1.93607,6,17
5/2/2024 12:36,-0.75,0.38,2.66,-7.39,-31.54,-1.44,30.148533,-1.935919,7,19
5/2/2024 12:36,1.09,-0.35,3.38,11.76,28.05,-51.95,30.14852,-1.935793,0,1
5/2/2024 12:36,-0.51,0.05,3.7,0.75,-7.33,-1.53,30.148569,-1.935718,0,1
5/2/2024 12:36,-0.94,-0.22,4.45,4.87,62.17,-1.45,30.148733,-1.935601,7,18
5/2/2024 12:36,-1.79,-0.1,4.93,-4.21,58.37,4.34,30.148956,-1.935497,7,18
5/2/2024 12:36,-1.88,-0.11,4.77,-8.03,83.6,7.04,30.149216,-1.935425,7,18
5/2/2024 12:36,-1.19,-0.77,5.07,0,51.18,-1.34,30.149492,-1.935374,0,1
5/2/2024 12:37,-1.43,-0.8,6.79,-16.98,59.22,1.22,30.149799,-1.935332,0,1
5/2/2024 12:37,-1.06,0.15,0.67,-11.85,93.16,10.12,30.150015,-1.935305,7,19
5/2/2024 12:37,-0.99,-0.37,2.29,-3.37,16.18,-8.98,30.150339,-1.935271,7,17
5/2/2024 12:37,-0.53,-1.13,6.43,13.44,-58.27,-11.89,30.150688,-1.935233,7,19
5/2/2024 12:37,-1.21,-0.67,5.31,5.89,1.51,0.72,30.151041,-1.935189,0,1
5/2/2024 12:37,-1.57,-0.56,3.2,25.54,-39.94,-3.4,30.151276,-1.935159,0,1
5/2/2024 12:37,-1.3,-0.26,3.66,4.15,-19.53,2.24,30.151625,-1.935109,7,20
5/2/2024 12:37,-1.94,-0.88,5.34,17.19,-76.81,-1.91,30.151981,-1.935071,7,18
5/2/2024 12:37,-2.61,-0.16,4.58,-18.23,131.48,18.58,30.152351,-1.935023,7,18
5/2/2024 12:37,-2.6,-0.25,2.64,6.47,70.67,-32.44,30.152748,-1.934985,0,1
5/2/2024 12:37,0.25,-0.29,2.39,5.53,-8.87,0.18,30.153021,-1.934961,0,1
5/2/2024 12:37,-1.09,0.27,2.07,4.03,2.14,3.21,30.153429,-1.93491,6,17
5/2/2024 12:37,-3.41,-0.13,3.8,15.48,-48.08,-7.02,30.15386,-1.934858,7,18
